id,lat,lon,name,population
1,37.7749,-122.4194,San Francisco,884363
2,40.7128,-74.0060,New York,8336817
3,51.5074,-0.1278,London,8982000
4,48.8566,2.3522,Paris,2148000
5,35.6762,139.6503,Tokyo,9273000
6,55.7558,37.6173,Moscow,12538000
7,19.4326,-99.1332,Mexico City,8918653
8,-33.8688,151.2093,Sydney,5312000 